[{"id":1,"name":"Luzhniki Stadium","city":"Moscow","lat":55.715765,"lng":37.5515217,"image":"Luzhniki_Stadium,_Moscow.jpg","image_id":"luzhniki_stadium.jpg"},{"id":2,"name":"Otkrytiye Arena","city":"Moscow","lat":55.817765,"lng":37.440363,"image":"Stadium_Spartak_in_Moscow.jpg","image_id":"otkrytiye_arena.jpg"},{"id":3,"name":"Krestovsky Stadium","city":"Saint Petersburg","lat":59.97274,"lng":30.221408,"image":"Spb_06-2017_img40_Krestovsky_Stadium.jpg","image_id":"krestovsky_stadium.jpg"},{"id":4,"name":"Kaliningrad Stadium","city":"Kaliningrad","lat":54.698157,"lng":20.533859,"image":"Kaliningrad_stadium_-_2018-04-07.jpg","image_id":"kaliningrad_stadium.jpg"},{"id":5,"name":"Kazan Arena","city":"Kazan","lat":55.820983,"lng":49.160966,"image":"Kazan_Arena_08-2016.jpg","image_id":"kazan_arena.jpg"},{"id":6,"name":"Nizhny Novgorod Stadium","city":"Nizhny Novgorod","lat":56.337287,"lng":43.963251,"image":"Nizhny_Novgorod_Stadium_(March_2018).jpg","image_id":"nizhny_novgorod_stadium.jpg"},{"id":7,"name":"Cosmos Arena","city":"Samara","lat":53.278146,"lng":50.238854,"image":"d0mymt1ubl2pypmu3gn3.jpg","image_id":"cosmos_arena.jpg"},{"id":8,"name":"Volgograd Arena","city":"Volgograd","lat":48.734195,"lng":44.548345,"image":"Construction_of_Volgograd_Arena_inside_04.jpg","image_id":"volgograd_arena.jpg"},{"id":9,"name":"Mordovia Arena","city":"Saransk","lat":54.181795,"lng":45.203851,"image":"\u0421\u0442\u0430\u0434\u0438\u043e\u043d_Mordovia_arena.jpg","image_id":"mordovia_arena.jpg"},{"id":10,"name":"Rostov Arena","city":"Rostov-on-Don","lat":47.209581,"lng":39.738424,"image":"Rostov-Arens_(april_2018)_01.jpg","image_id":"rostov_arena.jpg"},{"id":11,"name":"Fisht Olympic Stadium","city":"Sochi","lat":43.402011,"lng":39.955709,"image":"Fisht_Stadium_in_January_2018.jpg","image_id":"fisht_olympic_stadium.jpg"},{"id":12,"name":"Central Stadium","city":"Yekaterinburg","lat":56.83249,"lng":60.573585,"image":"Estadio_Central_(Ekaterinburg-arena).jpg","image_id":"central_stadium.jpg"}]